{
  "features": [
    {
      "type": "Feature",
      "properties": {
        "LocationId": 1,
        "Name": "Centro de Inspeção de Abóboda",
        "ServiceType": 12
      },
      "geometry": {
        "coordinates": [
          -9.331032,
          38.724561
        ],
        "type": "Point"
      },
      "id": "19679"
    },
    {
      "type": "Feature",
      "properties": {
        "LocationId": 1,
        "Name": "A6 - Elvas Oeste II",
        "ServiceType": 5
      },
      "geometry": {
        "coordinates": [
          -7.214328,
          38.888375
        ],
        "type": "Point"
      },
      "id": "19680"
    },
    {
      "type": "Feature",
      "properties": {
        "LocationId": 2,
        "Name": "Centro de Inspeção de Prior Velho",
        "ServiceType": 12
      },
      "geometry": {
        "coordinates": [
          -9.127792,
          38.786699
        ],
        "type": "Point"
      },
      "id": "19681"
    },
    {
      "type": "Feature",
      "properties": {
        "LocationId": 2,
        "Name": "A6 - Caia",
        "ServiceType": 5
      },
      "geometry": {
        "coordinates": [
          -7.034075,
          38.883254
        ],
        "type": "Point"
      },
      "id": "19682"
    },
    {
      "type": "Feature",
      "properties": {
        "LocationId": 3,
        "Name": "Centro de Inspeção de Albergaria",
        "ServiceType": 12
      },
      "geometry": {
        "coordinates": [
          -8.495946,
          40.705096
        ],
        "type": "Point"
      },
      "id": "19683"
    },
    {
      "type": "Feature",
      "properties": {
        "LocationId": 4,
        "Name": "A2 - Port. Paderne",
        "ServiceType": 5
      },
      "geometry": {
        "coordinates": [
          -8.229542,
          37.198476
        ],
        "type": "Point"
      },
      "id": "19684"
    },
    {
      "type": "Feature",
      "properties": {
        "LocationId": 4,
        "Name": "Centro de Inspeção de Alpiarça",
        "ServiceType": 12
      },
      "geometry": {
        "coordinates": [
          -8.555024,
          39.273247
        ],
        "type": "Point"
      },
      "id": "19685"
    },
    {
      "type": "Feature",
      "properties": {
        "LocationId": 5,
        "Name": "Centro de Inspeção de Alverca",
        "ServiceType": 12
      },
      "geometry": {
        "coordinates": [
          -9.025157,
          38.904952
        ],
        "type": "Point"
      },
      "id": "19686"
    },
    {
      "type": "Feature",
      "properties": {
        "LocationId": 6,
        "Name": "A2 - Nó A2/A6/A13 II",
        "ServiceType": 5
      },
      "geometry": {
        "coordinates": [
          -8.645574,
          38.602668
        ],
        "type": "Point"
      },
      "id": "19687"
    },
    {
      "type": "Feature",
      "properties": {
        "LocationId": 6,
        "Name": "Centro de Inspeção de Esgueira",
        "ServiceType": 12
      },
      "geometry": {
        "coordinates": [
          -8.618112,
          40.656249
        ],
        "type": "Point"
      },
      "id": "19688"
    },
    {
      "type": "Feature",
      "properties": {
        "LocationId": 7,
        "Name": "Centro de Inspeção de Aveiro",
        "ServiceType": 12
      },
      "geometry": {
        "coordinates": [
          -8.683142,
          40.634402
        ],
        "type": "Point"
      },
      "id": "19689"
    },
    {
      "type": "Feature",
      "properties": {
        "LocationId": 8,
        "Name": "Centro de Inspeção de Azeitão",
        "ServiceType": 12
      },
      "geometry": {
        "coordinates": [
          -9.003844,
          38.528211
        ],
        "type": "Point"
      },
      "id": "19690"
    },
    {
      "type": "Feature",
      "properties": {
        "LocationId": 8,
        "Name": "A12 - Almada/Fogueteiro IV",
        "ServiceType": 5
      },
      "geometry": {
        "coordinates": [
          -8.90701,
          38.709597
        ],
        "type": "Point"
      },
      "id": "19691"
    },
    {
      "type": "Feature",
      "properties": {
        "LocationId": 9,
        "Name": "Centro de Inspeção de Barreiro",
        "ServiceType": 12
      },
      "geometry": {
        "coordinates": [
          -9.050503,
          38.635033
        ],
        "type": "Point"
      },
      "id": "19692"
    },
    {
      "type": "Feature",
      "properties": {
        "LocationId": 9,
        "Name": "A5 - Miraflores",
        "ServiceType": 5
      },
      "geometry": {
        "coordinates": [
          -9.228919,
          38.71623
        ],
        "type": "Point"
      },
      "id": "19693"
    },
    {
      "type": "Feature",
      "properties": {
        "LocationId": 10,
        "Name": "A5 - Estádio II",
        "ServiceType": 5
      },
      "geometry": {
        "coordinates": [
          -9.25587,
          38.713686
        ],
        "type": "Point"
      },
      "id": "19694"
    },
    {
      "type": "Feature",
      "properties": {
        "LocationId": 10,
        "Name": "Centro de Inspeção de Batalha",
        "ServiceType": 12
      },
      "geometry": {
        "coordinates": [
          -8.843379,
          39.669712
        ],
        "type": "Point"
      },
      "id": "19695"
    },
    {
      "type": "Feature",
      "properties": {
        "LocationId": 11,
        "Name": "Centro de Inspeção de Braga",
        "ServiceType": 12
      },
      "geometry": {
        "coordinates": [
          -8.411619,
          41.596349
        ],
        "type": "Point"
      },
      "id": "19696"
    },
    {
      "type": "Feature",
      "properties": {
        "LocationId": 12,
        "Name": "A5 - Port. Carcavelos",
        "ServiceType": 5
      },
      "geometry": {
        "coordinates": [
          -9.331384,
          38.707873
        ],
        "type": "Point"
      },
      "id": "19697"
    },
    {
      "type": "Feature",
      "properties": {
        "LocationId": 12,
        "Name": "Centro de Inspeção de Cascais",
        "ServiceType": 12
      },
      "geometry": {
        "coordinates": [
          -9.432433,
          38.709316
        ],
        "type": "Point"
      },
      "id": "19698"
    },
    {
      "type": "Feature",
      "properties": {
        "LocationId": 13,
        "Name": "Centro de Inspeção de Castelo Branco",
        "ServiceType": 12
      },
      "geometry": {
        "coordinates": [
          -7.519111,
          39.810828
        ],
        "type": "Point"
      },
      "id": "19699"
    },
    {
      "type": "Feature",
      "properties": {
        "LocationId": 14,
        "Name": "Centro de Inspeção de Coimbra",
        "ServiceType": 12
      },
      "geometry": {
        "coordinates": [
          -8.4433,
          40.180717
        ],
        "type": "Point"
      },
      "id": "19700"
    },
    {
      "type": "Feature",
      "properties": {
        "LocationId": 15,
        "Name": "Centro de Inspeção de Corroios",
        "ServiceType": 12
      },
      "geometry": {
        "coordinates": [
          -9.152987,
          38.624674
        ],
        "type": "Point"
      },
      "id": "19701"
    },
    {
      "type": "Feature",
      "properties": {
        "LocationId": 16,
        "Name": "Centro de Inspeção de Estoril",
        "ServiceType": 12
      },
      "geometry": {
        "coordinates": [
          -9.391567,
          38.749949
        ],
        "type": "Point"
      },
      "id": "19702"
    },
    {
      "type": "Feature",
      "properties": {
        "LocationId": 17,
        "Name": "Centro de Inspeção de Évora",
        "ServiceType": 12
      },
      "geometry": {
        "coordinates": [
          -7.910019,
          38.545755
        ],
        "type": "Point"
      },
      "id": "19703"
    },
    {
      "type": "Feature",
      "properties": {
        "LocationId": 18,
        "Name": "Centro de Inspeção de Famalicão",
        "ServiceType": 12
      },
      "geometry": {
        "coordinates": [
          -8.504633,
          41.38086
        ],
        "type": "Point"
      },
      "id": "19704"
    },
    {
      "type": "Feature",
      "properties": {
        "LocationId": 19,
        "Name": "Centro de Inspeção de Faro",
        "ServiceType": 12
      },
      "geometry": {
        "coordinates": [
          -7.976716,
          37.021683
        ],
        "type": "Point"
      },
      "id": "19705"
    },
    {
      "type": "Feature",
      "properties": {
        "LocationId": 19,
        "Name": "A1 - Coimbra Sul",
        "ServiceType": 5
      },
      "geometry": {
        "coordinates": [
          -8.489093,
          40.20377
        ],
        "type": "Point"
      },
      "id": "19706"
    },
    {
      "type": "Feature",
      "properties": {
        "LocationId": 20,
        "Name": "Centro de Inspeção de Fátima",
        "ServiceType": 12
      },
      "geometry": {
        "coordinates": [
          -8.671361,
          39.675449
        ],
        "type": "Point"
      },
      "id": "19707"
    },
    {
      "type": "Feature",
      "properties": {
        "LocationId": 20,
        "Name": "A1 - Coimbra Norte",
        "ServiceType": 5
      },
      "geometry": {
        "coordinates": [
          -8.479733,
          40.275532
        ],
        "type": "Point"
      },
      "id": "19708"
    },
    {
      "type": "Feature",
      "properties": {
        "LocationId": 21,
        "Name": "Centro de Inspeção de Feijó",
        "ServiceType": 12
      },
      "geometry": {
        "coordinates": [
          -9.16822,
          38.65425
        ],
        "type": "Point"
      },
      "id": "19709"
    },
    {
      "type": "Feature",
      "properties": {
        "LocationId": 21,
        "Name": "A1 - Mealhada",
        "ServiceType": 5
      },
      "geometry": {
        "coordinates": [
          -8.493125,
          40.3767
        ],
        "type": "Point"
      },
      "id": "19710"
    },
    {
      "type": "Feature",
      "properties": {
        "LocationId": 22,
        "Name": "Centro de Inspeção de Figueira Da Foz",
        "ServiceType": 12
      },
      "geometry": {
        "coordinates": [
          -8.850158,
          40.122211
        ],
        "type": "Point"
      },
      "id": "19711"
    },
    {
      "type": "Feature",
      "properties": {
        "LocationId": 22,
        "Name": "A1 - Aveiro Sul",
        "ServiceType": 5
      },
      "geometry": {
        "coordinates": [
          -8.56094,
          40.573452
        ],
        "type": "Point"
      },
      "id": "19712"
    },
    {
      "type": "Feature",
      "properties": {
        "LocationId": 23,
        "Name": "A1 - Albergaria",
        "ServiceType": 5
      },
      "geometry": {
        "coordinates": [
          -8.523085,
          40.695255
        ],
        "type": "Point"
      },
      "id": "19713"
    },
    {
      "type": "Feature",
      "properties": {
        "LocationId": 23,
        "Name": "Centro de Inspeção de Gaia",
        "ServiceType": 12
      },
      "geometry": {
        "coordinates": [
          -8.566467,
          41.042795
        ],
        "type": "Point"
      },
      "id": "19714"
    },
    {
      "type": "Feature",
      "properties": {
        "LocationId": 24,
        "Name": "Centro de Inspeção de Guia",
        "ServiceType": 12
      },
      "geometry": {
        "coordinates": [
          -8.311534,
          37.127946
        ],
        "type": "Point"
      },
      "id": "19715"
    },
    {
      "type": "Feature",
      "properties": {
        "LocationId": 24,
        "Name": "A1 - Feira",
        "ServiceType": 5
      },
      "geometry": {
        "coordinates": [
          -8.570512,
          40.932097
        ],
        "type": "Point"
      },
      "id": "19716"
    },
    {
      "type": "Feature",
      "properties": {
        "LocationId": 25,
        "Name": "Centro de Inspeção de Lagos",
        "ServiceType": 12
      },
      "geometry": {
        "coordinates": [
          -8.770727,
          37.094254
        ],
        "type": "Point"
      },
      "id": "19717"
    },
    {
      "type": "Feature",
      "properties": {
        "LocationId": 25,
        "Name": "A1 - Grijó",
        "ServiceType": 5
      },
      "geometry": {
        "coordinates": [
          -8.582673,
          41.014563
        ],
        "type": "Point"
      },
      "id": "19718"
    },
    {
      "type": "Feature",
      "properties": {
        "LocationId": 26,
        "Name": "A1 - Carvalhos III",
        "ServiceType": 5
      },
      "geometry": {
        "coordinates": [
          -8.582771,
          41.081461
        ],
        "type": "Point"
      },
      "id": "19719"
    },
    {
      "type": "Feature",
      "properties": {
        "LocationId": 27,
        "Name": "Centro de Inspeção de Loulé",
        "ServiceType": 12
      },
      "geometry": {
        "coordinates": [
          -8.032745,
          37.129995
        ],
        "type": "Point"
      },
      "id": "19720"
    },
    {
      "type": "Feature",
      "properties": {
        "LocationId": 27,
        "Name": "A3 - Via de Circ. Interna",
        "ServiceType": 5
      },
      "geometry": {
        "coordinates": [
          -8.594917,
          41.172724
        ],
        "type": "Point"
      },
      "id": "19721"
    },
    {
      "type": "Feature",
      "properties": {
        "LocationId": 28,
        "Name": "Centro de Inspeção de Loures",
        "ServiceType": 12
      },
      "geometry": {
        "coordinates": [
          -9.165863,
          38.827944
        ],
        "type": "Point"
      },
      "id": "19722"
    },
    {
      "type": "Feature",
      "properties": {
        "LocationId": 28,
        "Name": "A3 - Circunvalação",
        "ServiceType": 5
      },
      "geometry": {
        "coordinates": [
          -8.592979,
          41.180595
        ],
        "type": "Point"
      },
      "id": "19723"
    },
    {
      "type": "Feature",
      "properties": {
        "LocationId": 29,
        "Name": "Centro de Inspeção de Mação",
        "ServiceType": 12
      },
      "geometry": {
        "coordinates": [
          -8.005385,
          39.548156
        ],
        "type": "Point"
      },
      "id": "19724"
    },
    {
      "type": "Feature",
      "properties": {
        "LocationId": 29,
        "Name": "A3 - Águas Santas",
        "ServiceType": 5
      },
      "geometry": {
        "coordinates": [
          -8.586877,
          41.199514
        ],
        "type": "Point"
      },
      "id": "19725"
    },
    {
      "type": "Feature",
      "properties": {
        "LocationId": 30,
        "Name": "Centro de Inspeção de Miraflores",
        "ServiceType": 12
      },
      "geometry": {
        "coordinates": [
          -9.236113,
          38.717307
        ],
        "type": "Point"
      },
      "id": "19726"
    },
    {
      "type": "Feature",
      "properties": {
        "LocationId": 31,
        "Name": "Centro de Inspeção de Pinhal Novo",
        "ServiceType": 12
      },
      "geometry": {
        "coordinates": [
          -8.912338,
          38.605087
        ],
        "type": "Point"
      },
      "id": "19727"
    },
    {
      "type": "Feature",
      "properties": {
        "LocationId": 31,
        "Name": "A3 - Sto Tirso/Maia",
        "ServiceType": 5
      },
      "geometry": {
        "coordinates": [
          -8.536522,
          41.303385
        ],
        "type": "Point"
      },
      "id": "19728"
    },
    {
      "type": "Feature",
      "properties": {
        "LocationId": 32,
        "Name": "Centro de Inspeção de Francos",
        "ServiceType": 12
      },
      "geometry": {
        "coordinates": [
          -8.640475,
          41.17112
        ],
        "type": "Point"
      },
      "id": "19729"
    },
    {
      "type": "Feature",
      "properties": {
        "LocationId": 32,
        "Name": "A4 - Valongo",
        "ServiceType": 5
      },
      "geometry": {
        "coordinates": [
          -8.486422,
          41.195891
        ],
        "type": "Point"
      },
      "id": "19730"
    },
    {
      "type": "Feature",
      "properties": {
        "LocationId": 33,
        "Name": "Centro de Inspeção de Porto Alto",
        "ServiceType": 12
      },
      "geometry": {
        "coordinates": [
          -8.856108,
          38.916649
        ],
        "type": "Point"
      },
      "id": "19731"
    },
    {
      "type": "Feature",
      "properties": {
        "LocationId": 33,
        "Name": "A4 - Valongo/Campo",
        "ServiceType": 5
      },
      "geometry": {
        "coordinates": [
          -8.467361,
          41.187269
        ],
        "type": "Point"
      },
      "id": "19732"
    },
    {
      "type": "Feature",
      "properties": {
        "LocationId": 34,
        "Name": "Centro de Inspeção de Queluz",
        "ServiceType": 12
      },
      "geometry": {
        "coordinates": [
          -9.249269,
          38.756256
        ],
        "type": "Point"
      },
      "id": "19733"
    },
    {
      "type": "Feature",
      "properties": {
        "LocationId": 34,
        "Name": "A4 - Campo",
        "ServiceType": 5
      },
      "geometry": {
        "coordinates": [
          -8.450096,
          41.182919
        ],
        "type": "Point"
      },
      "id": "19734"
    },
    {
      "type": "Feature",
      "properties": {
        "LocationId": 35,
        "Name": "Centro de Inspeção de São Brás",
        "ServiceType": 12
      },
      "geometry": {
        "coordinates": [
          -7.8938,
          37.131874
        ],
        "type": "Point"
      },
      "id": "19735"
    },
    {
      "type": "Feature",
      "properties": {
        "LocationId": 35,
        "Name": "A4 - Amarante",
        "ServiceType": 5
      },
      "geometry": {
        "coordinates": [
          -8.142476,
          41.22504
        ],
        "type": "Point"
      },
      "id": "19736"
    },
    {
      "type": "Feature",
      "properties": {
        "LocationId": 36,
        "Name": "Centro de Inspeção de Setúbal",
        "ServiceType": 12
      },
      "geometry": {
        "coordinates": [
          -8.880087,
          38.546931
        ],
        "type": "Point"
      },
      "id": "19737"
    },
    {
      "type": "Feature",
      "properties": {
        "LocationId": 36,
        "Name": "A3 - Famalicão",
        "ServiceType": 5
      },
      "geometry": {
        "coordinates": [
          -8.502742,
          41.374191
        ],
        "type": "Point"
      },
      "id": "19738"
    },
    {
      "type": "Feature",
      "properties": {
        "LocationId": 37,
        "Name": "Centro de Inspeção de Sintra",
        "ServiceType": 12
      },
      "geometry": {
        "coordinates": [
          -9.354446,
          38.834064
        ],
        "type": "Point"
      },
      "id": "19739"
    },
    {
      "type": "Feature",
      "properties": {
        "LocationId": 37,
        "Name": "A3 - Cruz",
        "ServiceType": 5
      },
      "geometry": {
        "coordinates": [
          -8.487332,
          41.454878
        ],
        "type": "Point"
      },
      "id": "19740"
    },
    {
      "type": "Feature",
      "properties": {
        "LocationId": 38,
        "Name": "Centro de Inspeção de Souselas",
        "ServiceType": 12
      },
      "geometry": {
        "coordinates": [
          -8.419761,
          40.295048
        ],
        "type": "Point"
      },
      "id": "19741"
    },
    {
      "type": "Feature",
      "properties": {
        "LocationId": 38,
        "Name": "A3 - Braga Sul/Cruz",
        "ServiceType": 5
      },
      "geometry": {
        "coordinates": [
          -8.46922,
          41.469519
        ],
        "type": "Point"
      },
      "id": "19742"
    },
    {
      "type": "Feature",
      "properties": {
        "LocationId": 39,
        "Name": "Centro de Inspeção de Feira",
        "ServiceType": 12
      },
      "geometry": {
        "coordinates": [
          -8.52305,
          40.930568
        ],
        "type": "Point"
      },
      "id": "19743"
    },
    {
      "type": "Feature",
      "properties": {
        "LocationId": 39,
        "Name": "A3 - Braga Sul",
        "ServiceType": 5
      },
      "geometry": {
        "coordinates": [
          -8.471977,
          41.506242
        ],
        "type": "Point"
      },
      "id": "19744"
    },
    {
      "type": "Feature",
      "properties": {
        "LocationId": 40,
        "Name": "Centro de Inspeção de Guisande",
        "ServiceType": 12
      },
      "geometry": {
        "coordinates": [
          -8.481888,
          40.978871
        ],
        "type": "Point"
      },
      "id": "19745"
    },
    {
      "type": "Feature",
      "properties": {
        "LocationId": 40,
        "Name": "A3 - Braga Oeste",
        "ServiceType": 5
      },
      "geometry": {
        "coordinates": [
          -8.496429,
          41.540277
        ],
        "type": "Point"
      },
      "id": "19746"
    },
    {
      "type": "Feature",
      "properties": {
        "LocationId": 41,
        "Name": "Centro de Inspeção de Torres Novas",
        "ServiceType": 12
      },
      "geometry": {
        "coordinates": [
          -8.548214,
          39.465906
        ],
        "type": "Point"
      },
      "id": "19747"
    },
    {
      "type": "Feature",
      "properties": {
        "LocationId": 42,
        "Name": "Centro de Inspeção de Torres Vedras",
        "ServiceType": 12
      },
      "geometry": {
        "coordinates": [
          -9.243514,
          39.070641
        ],
        "type": "Point"
      },
      "id": "19748"
    },
    {
      "type": "Feature",
      "properties": {
        "LocationId": 43,
        "Name": "Centro de Inspeção de Casalinhos",
        "ServiceType": 12
      },
      "geometry": {
        "coordinates": [
          -9.340474,
          39.093692
        ],
        "type": "Point"
      },
      "id": "19749"
    },
    {
      "type": "Feature",
      "properties": {
        "LocationId": 44,
        "Name": "Centro de Inspeção de Venda Do Pinheiro",
        "ServiceType": 12
      },
      "geometry": {
        "coordinates": [
          -9.201617,
          38.913898
        ],
        "type": "Point"
      },
      "id": "19750"
    },
    {
      "type": "Feature",
      "properties": {
        "LocationId": 45,
        "Name": "Centro de Inspeção de Viseu",
        "ServiceType": 12
      },
      "geometry": {
        "coordinates": [
          -7.875981,
          40.629684
        ],
        "type": "Point"
      },
      "id": "19751"
    },
    {
      "type": "Feature",
      "properties": {
        "LocationId": 46,
        "Name": "Centro de Inspeção de São Roque",
        "ServiceType": 12
      },
      "geometry": {
        "coordinates": [
          -8.584221,
          41.157888
        ],
        "type": "Point"
      },
      "id": "19752"
    },
    {
      "type": "Feature",
      "properties": {
        "LocationId": 79,
        "Name": "A5 - Saída Pte 25 Abril",
        "ServiceType": 5
      },
      "geometry": {
        "coordinates": [
          -9.184048,
          38.724715
        ],
        "type": "Point"
      },
      "id": "19785"
    },
    {
      "type": "Feature",
      "properties": {
        "LocationId": 80,
        "Name": "A5 - Saída Pte 25 Abril",
        "ServiceType": 5
      },
      "geometry": {
        "coordinates": [
          -9.187373,
          38.725504
        ],
        "type": "Point"
      },
      "id": "19788"
    },
    {
      "type": "Feature",
      "properties": {
        "LocationId": 81,
        "Name": "A5 - Cruz Oliveiras",
        "ServiceType": 5
      },
      "geometry": {
        "coordinates": [
          -9.191961,
          38.725445
        ],
        "type": "Point"
      },
      "id": "19790"
    },
    {
      "type": "Feature",
      "properties": {
        "LocationId": 82,
        "Name": "A5 - Cruz Oliveiras",
        "ServiceType": 5
      },
      "geometry": {
        "coordinates": [
          -9.199303,
          38.722819
        ],
        "type": "Point"
      },
      "id": "19791"
    },
    {
      "type": "Feature",
      "properties": {
        "LocationId": 83,
        "Name": "A5 - Monsanto",
        "ServiceType": 5
      },
      "geometry": {
        "coordinates": [
          -9.203492,
          38.721326
        ],
        "type": "Point"
      },
      "id": "19793"
    },
    {
      "type": "Feature",
      "properties": {
        "LocationId": 84,
        "Name": "A5 - Monsanto/CRIL",
        "ServiceType": 5
      },
      "geometry": {
        "coordinates": [
          -9.213175,
          38.718442
        ],
        "type": "Point"
      },
      "id": "19795"
    },
    {
      "type": "Feature",
      "properties": {
        "LocationId": 87,
        "Name": "A5 - Linda-a-Velha",
        "ServiceType": 5
      },
      "geometry": {
        "coordinates": [
          -9.233372,
          38.717135
        ],
        "type": "Point"
      },
      "id": "19800"
    },
    {
      "type": "Feature",
      "properties": {
        "LocationId": 90,
        "Name": "A5 - Estádio I",
        "ServiceType": 5
      },
      "geometry": {
        "coordinates": [
          -9.250689,
          38.718362
        ],
        "type": "Point"
      },
      "id": "19804"
    },
    {
      "type": "Feature",
      "properties": {
        "LocationId": 94,
        "Name": "A5 - Área Serviço Oeiras",
        "ServiceType": 5
      },
      "geometry": {
        "coordinates": [
          -9.282612,
          38.714492
        ],
        "type": "Point"
      },
      "id": "19808"
    },
    {
      "type": "Feature",
      "properties": {
        "LocationId": 96,
        "Name": "A5 - Porto Salvo",
        "ServiceType": 5
      },
      "geometry": {
        "coordinates": [
          -9.296281,
          38.713464
        ],
        "type": "Point"
      },
      "id": "19811"
    },
    {
      "type": "Feature",
      "properties": {
        "LocationId": 98,
        "Name": "A5 - Oeiras",
        "ServiceType": 5
      },
      "geometry": {
        "coordinates": [
          -9.305362,
          38.712726
        ],
        "type": "Point"
      },
      "id": "19814"
    },
    {
      "type": "Feature",
      "properties": {
        "LocationId": 104,
        "Name": "A1 - Torres Novas I",
        "ServiceType": 5
      },
      "geometry": {
        "coordinates": [
          -8.641746,
          39.486953
        ],
        "type": "Point"
      },
      "id": "19822"
    },
    {
      "type": "Feature",
      "properties": {
        "LocationId": 105,
        "Name": "A1 - Torres Novas II",
        "ServiceType": 5
      },
      "geometry": {
        "coordinates": [
          -8.664026,
          39.50283
        ],
        "type": "Point"
      },
      "id": "19824"
    },
    {
      "type": "Feature",
      "properties": {
        "LocationId": 110,
        "Name": "A1 - Fátima II",
        "ServiceType": 5
      },
      "geometry": {
        "coordinates": [
          -8.695933,
          39.62528
        ],
        "type": "Point"
      },
      "id": "19830"
    },
    {
      "type": "Feature",
      "properties": {
        "LocationId": 111,
        "Name": "A1 - Área Serviço Leiria",
        "ServiceType": 5
      },
      "geometry": {
        "coordinates": [
          -8.696097,
          39.698233
        ],
        "type": "Point"
      },
      "id": "19832"
    },
    {
      "type": "Feature",
      "properties": {
        "LocationId": 112,
        "Name": "A1 - Área Serviço Leiria",
        "ServiceType": 5
      },
      "geometry": {
        "coordinates": [
          -8.714234,
          39.719568
        ],
        "type": "Point"
      },
      "id": "19834"
    },
    {
      "type": "Feature",
      "properties": {
        "LocationId": 115,
        "Name": "A9 - Queluz/Estádio I",
        "ServiceType": 5
      },
      "geometry": {
        "coordinates": [
          -9.273117,
          38.721959
        ],
        "type": "Point"
      },
      "id": "19837"
    },
    {
      "type": "Feature",
      "properties": {
        "LocationId": 116,
        "Name": "A9 - Queluz/Estádio II",
        "ServiceType": 5
      },
      "geometry": {
        "coordinates": [
          -9.27697,
          38.734798
        ],
        "type": "Point"
      },
      "id": "19839"
    },
    {
      "type": "Feature",
      "properties": {
        "LocationId": 118,
        "Name": "A9 - Port. Queluz",
        "ServiceType": 5
      },
      "geometry": {
        "coordinates": [
          -9.274482,
          38.745689
        ],
        "type": "Point"
      },
      "id": "19842"
    },
    {
      "type": "Feature",
      "properties": {
        "LocationId": 120,
        "Name": "A9 - Carenque",
        "ServiceType": 5
      },
      "geometry": {
        "coordinates": [
          -9.264845,
          38.771722
        ],
        "type": "Point"
      },
      "id": "19845"
    },
    {
      "type": "Feature",
      "properties": {
        "LocationId": 122,
        "Name": "A9 - Pontinha",
        "ServiceType": 5
      },
      "geometry": {
        "coordinates": [
          -9.241895,
          38.787143
        ],
        "type": "Point"
      },
      "id": "19848"
    },
    {
      "type": "Feature",
      "properties": {
        "LocationId": 123,
        "Name": "A9 - Pontinha",
        "ServiceType": 5
      },
      "geometry": {
        "coordinates": [
          -9.238002,
          38.804678
        ],
        "type": "Point"
      },
      "id": "19851"
    },
    {
      "type": "Feature",
      "properties": {
        "LocationId": 125,
        "Name": "A9 - Viad. Loures",
        "ServiceType": 5
      },
      "geometry": {
        "coordinates": [
          -9.185866,
          38.84455
        ],
        "type": "Point"
      },
      "id": "19853"
    },
    {
      "type": "Feature",
      "properties": {
        "LocationId": 126,
        "Name": "A9 - Loures",
        "ServiceType": 5
      },
      "geometry": {
        "coordinates": [
          -9.157194,
          38.860485
        ],
        "type": "Point"
      },
      "id": "19855"
    },
    {
      "type": "Feature",
      "properties": {
        "LocationId": 127,
        "Name": "A9 - Zambujal",
        "ServiceType": 5
      },
      "geometry": {
        "coordinates": [
          -9.141984,
          38.867672
        ],
        "type": "Point"
      },
      "id": "19857"
    },
    {
      "type": "Feature",
      "properties": {
        "LocationId": 133,
        "Name": "A9 - Alverca",
        "ServiceType": 5
      },
      "geometry": {
        "coordinates": [
          -9.055367,
          38.898616
        ],
        "type": "Point"
      },
      "id": "19862"
    },
    {
      "type": "Feature",
      "properties": {
        "LocationId": 134,
        "Name": "A1 - Leiria/ Pombal I",
        "ServiceType": 5
      },
      "geometry": {
        "coordinates": [
          -8.744798,
          39.763472
        ],
        "type": "Point"
      },
      "id": "19864"
    },
    {
      "type": "Feature",
      "properties": {
        "LocationId": 137,
        "Name": "A3 - Pte Lima/Valença",
        "ServiceType": 5
      },
      "geometry": {
        "coordinates": [
          -8.600705,
          41.821788
        ],
        "type": "Point"
      },
      "id": "19869"
    },
    {
      "type": "Feature",
      "properties": {
        "LocationId": 138,
        "Name": "A3 - Pte Lima/Valença",
        "ServiceType": 5
      },
      "geometry": {
        "coordinates": [
          -8.604579,
          41.84291
        ],
        "type": "Point"
      },
      "id": "19871"
    },
    {
      "type": "Feature",
      "properties": {
        "LocationId": 139,
        "Name": "A3 - Pte Lima/Valença",
        "ServiceType": 5
      },
      "geometry": {
        "coordinates": [
          -8.618728,
          41.851083
        ],
        "type": "Point"
      },
      "id": "19873"
    },
    {
      "type": "Feature",
      "properties": {
        "LocationId": 140,
        "Name": "A3 - Pte Lima/Valença",
        "ServiceType": 5
      },
      "geometry": {
        "coordinates": [
          -8.64478,
          41.86272
        ],
        "type": "Point"
      },
      "id": "19875"
    },
    {
      "type": "Feature",
      "properties": {
        "LocationId": 141,
        "Name": "A3 - Nó Sapardos",
        "ServiceType": 5
      },
      "geometry": {
        "coordinates": [
          -8.652293,
          41.925983
        ],
        "type": "Point"
      },
      "id": "19877"
    },
    {
      "type": "Feature",
      "properties": {
        "LocationId": 142,
        "Name": "A3 - Pte Lima/Valença",
        "ServiceType": 5
      },
      "geometry": {
        "coordinates": [
          -8.658152,
          41.902466
        ],
        "type": "Point"
      },
      "id": "19879"
    },
    {
      "type": "Feature",
      "properties": {
        "LocationId": 143,
        "Name": "A3 - Pte Lima/Valença",
        "ServiceType": 5
      },
      "geometry": {
        "coordinates": [
          -8.671417,
          41.959124
        ],
        "type": "Point"
      },
      "id": "19881"
    },
    {
      "type": "Feature",
      "properties": {
        "LocationId": 144,
        "Name": "A3 - Valença",
        "ServiceType": 5
      },
      "geometry": {
        "coordinates": [
          -8.648156,
          41.984374
        ],
        "type": "Point"
      },
      "id": "19883"
    },
    {
      "type": "Feature",
      "properties": {
        "LocationId": 145,
        "Name": "A9 - Odivelas",
        "ServiceType": 5
      },
      "geometry": {
        "coordinates": [
          -9.191991,
          38.825481
        ],
        "type": "Point"
      },
      "id": "19885"
    },
    {
      "type": "Feature",
      "properties": {
        "LocationId": 149,
        "Name": "A2 - Fogueteiro II",
        "ServiceType": 5
      },
      "geometry": {
        "coordinates": [
          -9.101302,
          38.606986
        ],
        "type": "Point"
      },
      "id": "19889"
    },
    {
      "type": "Feature",
      "properties": {
        "LocationId": 152,
        "Name": "A2 - Palmela",
        "ServiceType": 5
      },
      "geometry": {
        "coordinates": [
          -8.884631,
          38.584687
        ],
        "type": "Point"
      },
      "id": "19893"
    },
    {
      "type": "Feature",
      "properties": {
        "LocationId": 153,
        "Name": "A2 - Nó A2/A12",
        "ServiceType": 5
      },
      "geometry": {
        "coordinates": [
          -8.861305,
          38.581586
        ],
        "type": "Point"
      },
      "id": "19895"
    },
    {
      "type": "Feature",
      "properties": {
        "LocationId": 154,
        "Name": "A5 - Pimenteira",
        "ServiceType": 5
      },
      "geometry": {
        "coordinates": [
          -9.181725,
          38.724652
        ],
        "type": "Point"
      },
      "id": "19898"
    },
    {
      "type": "Feature",
      "properties": {
        "LocationId": 155,
        "Name": "A5 - Cruz Oliveiras",
        "ServiceType": 5
      },
      "geometry": {
        "coordinates": [
          -9.194113,
          38.724701
        ],
        "type": "Point"
      },
      "id": "19900"
    },
    {
      "type": "Feature",
      "properties": {
        "LocationId": 156,
        "Name": "A5 - Monsanto",
        "ServiceType": 5
      },
      "geometry": {
        "coordinates": [
          -9.208866,
          38.719717
        ],
        "type": "Point"
      },
      "id": "19901"
    },
    {
      "type": "Feature",
      "properties": {
        "LocationId": 158,
        "Name": "A5 - Linda-a-Velha",
        "ServiceType": 5
      },
      "geometry": {
        "coordinates": [
          -9.237417,
          38.71883
        ],
        "type": "Point"
      },
      "id": "19904"
    },
    {
      "type": "Feature",
      "properties": {
        "LocationId": 159,
        "Name": "A5 - Estádio Nacional",
        "ServiceType": 5
      },
      "geometry": {
        "coordinates": [
          -9.262791,
          38.713592
        ],
        "type": "Point"
      },
      "id": "19906"
    },
    {
      "type": "Feature",
      "properties": {
        "LocationId": 160,
        "Name": "A12 - Setúbal",
        "ServiceType": 5
      },
      "geometry": {
        "coordinates": [
          -8.872151,
          38.540961
        ],
        "type": "Point"
      },
      "id": "19908"
    },
    {
      "type": "Feature",
      "properties": {
        "LocationId": 164,
        "Name": "A1 - Nó de Alverca",
        "ServiceType": 5
      },
      "geometry": {
        "coordinates": [
          -9.048701,
          38.89416
        ],
        "type": "Point"
      },
      "id": "19913"
    },
    {
      "type": "Feature",
      "properties": {
        "LocationId": 167,
        "Name": "A12 - Pinhal Novo",
        "ServiceType": 5
      },
      "geometry": {
        "coordinates": [
          -8.86659,
          38.631114
        ],
        "type": "Point"
      },
      "id": "19915"
    },
    {
      "type": "Feature",
      "properties": {
        "LocationId": 168,
        "Name": "A12 - Montijo",
        "ServiceType": 5
      },
      "geometry": {
        "coordinates": [
          -8.9326,
          38.717143
        ],
        "type": "Point"
      },
      "id": "19916"
    },
    {
      "type": "Feature",
      "properties": {
        "LocationId": 174,
        "Name": "A12 - A2/A12",
        "ServiceType": 5
      },
      "geometry": {
        "coordinates": [
          -8.864257,
          38.589007
        ],
        "type": "Point"
      },
      "id": "19919"
    },
    {
      "type": "Feature",
      "properties": {
        "LocationId": 175,
        "Name": "A2 - Aljustrel/Castro Verde",
        "ServiceType": 5
      },
      "geometry": {
        "coordinates": [
          -8.214359,
          37.780049
        ],
        "type": "Point"
      },
      "id": "19920"
    },
    {
      "type": "Feature",
      "properties": {
        "LocationId": 176,
        "Name": "A6 - Montemor Este",
        "ServiceType": 5
      },
      "geometry": {
        "coordinates": [
          -8.173221,
          38.665562
        ],
        "type": "Point"
      },
      "id": "19922"
    },
    {
      "type": "Feature",
      "properties": {
        "LocationId": 177,
        "Name": "A6 - Évora Poente",
        "ServiceType": 5
      },
      "geometry": {
        "coordinates": [
          -8.023574,
          38.602494
        ],
        "type": "Point"
      },
      "id": "19923"
    },
    {
      "type": "Feature",
      "properties": {
        "LocationId": 178,
        "Name": "A6 - Borba",
        "ServiceType": 5
      },
      "geometry": {
        "coordinates": [
          -7.466756,
          38.818376
        ],
        "type": "Point"
      },
      "id": "19924"
    },
    {
      "type": "Feature",
      "properties": {
        "LocationId": 179,
        "Name": "A6 - Évora Nascente",
        "ServiceType": 5
      },
      "geometry": {
        "coordinates": [
          -7.855621,
          38.647404
        ],
        "type": "Point"
      },
      "id": "19925"
    },
    {
      "type": "Feature",
      "properties": {
        "LocationId": 180,
        "Name": "A6 - Elvas Oeste I",
        "ServiceType": 5
      },
      "geometry": {
        "coordinates": [
          -7.224062,
          38.883797
        ],
        "type": "Point"
      },
      "id": "19927"
    },
    {
      "type": "Feature",
      "properties": {
        "LocationId": 181,
        "Name": "A6 - Sta Eulália",
        "ServiceType": 5
      },
      "geometry": {
        "coordinates": [
          -7.175912,
          38.909671
        ],
        "type": "Point"
      },
      "id": "19928"
    },
    {
      "type": "Feature",
      "properties": {
        "LocationId": 182,
        "Name": "A6 - Campo Maior",
        "ServiceType": 5
      },
      "geometry": {
        "coordinates": [
          -7.142967,
          38.902467
        ],
        "type": "Point"
      },
      "id": "19929"
    },
    {
      "type": "Feature",
      "properties": {
        "LocationId": 183,
        "Name": "A6 - Elvas Este",
        "ServiceType": 5
      },
      "geometry": {
        "coordinates": [
          -7.107212,
          38.8889
        ],
        "type": "Point"
      },
      "id": "19930"
    },
    {
      "type": "Feature",
      "properties": {
        "LocationId": 186,
        "Name": "A2 - Grândola Sul",
        "ServiceType": 5
      },
      "geometry": {
        "coordinates": [
          -8.41259,
          38.123454
        ],
        "type": "Point"
      },
      "id": "19932"
    },
    {
      "type": "Feature",
      "properties": {
        "LocationId": 187,
        "Name": "A6 - Elvas",
        "ServiceType": 5
      },
      "geometry": {
        "coordinates": [
          -7.260168,
          38.878113
        ],
        "type": "Point"
      },
      "id": "19933"
    },
    {
      "type": "Feature",
      "properties": {
        "LocationId": 188,
        "Name": "A6 - Vendas Novas",
        "ServiceType": 5
      },
      "geometry": {
        "coordinates": [
          -8.575332,
          38.622356
        ],
        "type": "Point"
      },
      "id": "19935"
    },
    {
      "type": "Feature",
      "properties": {
        "LocationId": 189,
        "Name": "A6 - Montemor Oeste",
        "ServiceType": 5
      },
      "geometry": {
        "coordinates": [
          -8.233457,
          38.666502
        ],
        "type": "Point"
      },
      "id": "19937"
    },
    {
      "type": "Feature",
      "properties": {
        "LocationId": 191,
        "Name": "A2 - Alcácer do Sal",
        "ServiceType": 5
      },
      "geometry": {
        "coordinates": [
          -8.511086,
          38.41676
        ],
        "type": "Point"
      },
      "id": "19938"
    },
    {
      "type": "Feature",
      "properties": {
        "LocationId": 194,
        "Name": "A1 - Alverca/V. Franca Xira",
        "ServiceType": 5
      },
      "geometry": {
        "coordinates": [
          -8.998489,
          38.943402
        ],
        "type": "Point"
      },
      "id": "19940"
    },
    {
      "type": "Feature",
      "properties": {
        "LocationId": 195,
        "Name": "A1 - Carregado/Aveiras",
        "ServiceType": 5
      },
      "geometry": {
        "coordinates": [
          -8.93888,
          39.066798
        ],
        "type": "Point"
      },
      "id": "19942"
    },
    {
      "type": "Feature",
      "properties": {
        "LocationId": 196,
        "Name": "A1 - Carregado/Aveiras",
        "ServiceType": 5
      },
      "geometry": {
        "coordinates": [
          -8.933788,
          39.097862
        ],
        "type": "Point"
      },
      "id": "19944"
    },
    {
      "type": "Feature",
      "properties": {
        "LocationId": 197,
        "Name": "A1 - Carregado/Aveiras",
        "ServiceType": 5
      },
      "geometry": {
        "coordinates": [
          -8.904303,
          39.1259
        ],
        "type": "Point"
      },
      "id": "19946"
    },
    {
      "type": "Feature",
      "properties": {
        "LocationId": 198,
        "Name": "A1 - V. Franca Xira/Carregado",
        "ServiceType": 5
      },
      "geometry": {
        "coordinates": [
          -8.967008,
          39.00631
        ],
        "type": "Point"
      },
      "id": "19947"
    },
    {
      "type": "Feature",
      "properties": {
        "LocationId": 201,
        "Name": "A1 - Stª Iria/Alverca",
        "ServiceType": 5
      },
      "geometry": {
        "coordinates": [
          -9.065773,
          38.876282
        ],
        "type": "Point"
      },
      "id": "19952"
    },
    {
      "type": "Feature",
      "properties": {
        "LocationId": 203,
        "Name": "A1 - S. João da Talha/Stª Iria",
        "ServiceType": 5
      },
      "geometry": {
        "coordinates": [
          -9.09709,
          38.831647
        ],
        "type": "Point"
      },
      "id": "19955"
    },
    {
      "type": "Feature",
      "properties": {
        "LocationId": 204,
        "Name": "A1 - Alverca/V. Franca Xira",
        "ServiceType": 5
      },
      "geometry": {
        "coordinates": [
          -8.986456,
          38.960984
        ],
        "type": "Point"
      },
      "id": "19957"
    },
    {
      "type": "Feature",
      "properties": {
        "LocationId": 205,
        "Name": "A2 - Nó A2/A6/A13 I",
        "ServiceType": 5
      },
      "geometry": {
        "coordinates": [
          -8.649004,
          38.602896
        ],
        "type": "Point"
      },
      "id": "19958"
    },
    {
      "type": "Feature",
      "properties": {
        "LocationId": 206,
        "Name": "A2 - Grândola Norte",
        "ServiceType": 5
      },
      "geometry": {
        "coordinates": [
          -8.518614,
          38.224478
        ],
        "type": "Point"
      },
      "id": "19960"
    },
    {
      "type": "Feature",
      "properties": {
        "LocationId": 208,
        "Name": "A6 - Estremoz",
        "ServiceType": 5
      },
      "geometry": {
        "coordinates": [
          -7.603646,
          38.82072
        ],
        "type": "Point"
      },
      "id": "19963"
    },
    {
      "type": "Feature",
      "properties": {
        "LocationId": 209,
        "Name": "A1 - Stª Iria/Alverca",
        "ServiceType": 5
      },
      "geometry": {
        "coordinates": [
          -9.071158,
          38.869387
        ],
        "type": "Point"
      },
      "id": "19966"
    },
    {
      "type": "Feature",
      "properties": {
        "LocationId": 210,
        "Name": "A2 - Nó A2/A6/A13 III",
        "ServiceType": 5
      },
      "geometry": {
        "coordinates": [
          -8.639114,
          38.600971
        ],
        "type": "Point"
      },
      "id": "19967"
    },
    {
      "type": "Feature",
      "properties": {
        "LocationId": 216,
        "Name": "A2 - Área de Serviço- Alcácer",
        "ServiceType": 5
      },
      "geometry": {
        "coordinates": [
          -8.587763,
          38.518929
        ],
        "type": "Point"
      },
      "id": "19974"
    },
    {
      "type": "Feature",
      "properties": {
        "LocationId": 217,
        "Name": "A1 - Nó de Stª Iria",
        "ServiceType": 5
      },
      "geometry": {
        "coordinates": [
          -9.099195,
          38.82371
        ],
        "type": "Point"
      },
      "id": "19977"
    },
    {
      "type": "Feature",
      "properties": {
        "LocationId": 223,
        "Name": "A1 - Alverca/V. Franca Xira",
        "ServiceType": 5
      },
      "geometry": {
        "coordinates": [
          -9.005609,
          38.934181
        ],
        "type": "Point"
      },
      "id": "19984"
    },
    {
      "type": "Feature",
      "properties": {
        "LocationId": 224,
        "Name": "A1 - Alverca/V. Franca Xira",
        "ServiceType": 5
      },
      "geometry": {
        "coordinates": [
          -8.984554,
          38.965166
        ],
        "type": "Point"
      },
      "id": "19986"
    },
    {
      "type": "Feature",
      "properties": {
        "LocationId": 225,
        "Name": "A1 - Sacavém/S. João da Talha",
        "ServiceType": 5
      },
      "geometry": {
        "coordinates": [
          -9.103825,
          38.807915
        ],
        "type": "Point"
      },
      "id": "19987"
    },
    {
      "type": "Feature",
      "properties": {
        "LocationId": 226,
        "Name": "A1 - S. João da Talha/Stª Iria",
        "ServiceType": 5
      },
      "geometry": {
        "coordinates": [
          -9.094243,
          38.841311
        ],
        "type": "Point"
      },
      "id": "19989"
    },
    {
      "type": "Feature",
      "properties": {
        "LocationId": 227,
        "Name": "A1 - Stª Iria/Alverca",
        "ServiceType": 5
      },
      "geometry": {
        "coordinates": [
          -9.084421,
          38.854581
        ],
        "type": "Point"
      },
      "id": "19992"
    },
    {
      "type": "Feature",
      "properties": {
        "LocationId": 230,
        "Name": "A1 - Pombal II",
        "ServiceType": 5
      },
      "geometry": {
        "coordinates": [
          -8.670793,
          39.947825
        ],
        "type": "Point"
      },
      "id": "19996"
    },
    {
      "type": "Feature",
      "properties": {
        "LocationId": 231,
        "Name": "A1 - Pombal/ Condeixa II",
        "ServiceType": 5
      },
      "geometry": {
        "coordinates": [
          -8.647793,
          39.970649
        ],
        "type": "Point"
      },
      "id": "19998"
    },
    {
      "type": "Feature",
      "properties": {
        "LocationId": 238,
        "Name": "A1 - V. Franca Xira/Carregado",
        "ServiceType": 5
      },
      "geometry": {
        "coordinates": [
          -8.970675,
          38.987693
        ],
        "type": "Point"
      },
      "id": "20006"
    },
    {
      "type": "Feature",
      "properties": {
        "LocationId": 240,
        "Name": "A1 - Pombal/ Condeixa I",
        "ServiceType": 5
      },
      "geometry": {
        "coordinates": [
          -8.667367,
          39.957304
        ],
        "type": "Point"
      },
      "id": "20009"
    },
    {
      "type": "Feature",
      "properties": {
        "LocationId": 244,
        "Name": "A1 - Pombal/ Condeixa VI",
        "ServiceType": 5
      },
      "geometry": {
        "coordinates": [
          -8.527974,
          40.106667
        ],
        "type": "Point"
      },
      "id": "20014"
    },
    {
      "type": "Feature",
      "properties": {
        "LocationId": 246,
        "Name": "A1 - Condeixa/Coimbra Sul I",
        "ServiceType": 5
      },
      "geometry": {
        "coordinates": [
          -8.493725,
          40.151379
        ],
        "type": "Point"
      },
      "id": "20016"
    },
    {
      "type": "Feature",
      "properties": {
        "LocationId": 247,
        "Name": "A1 - Condeixa/Coimbra Sul II",
        "ServiceType": 5
      },
      "geometry": {
        "coordinates": [
          -8.493206,
          40.166424
        ],
        "type": "Point"
      },
      "id": "20019"
    },
    {
      "type": "Feature",
      "properties": {
        "LocationId": 248,
        "Name": "A1 - Condeixa/Coimbra Sul III",
        "ServiceType": 5
      },
      "geometry": {
        "coordinates": [
          -8.48748,
          40.191293
        ],
        "type": "Point"
      },
      "id": "20021"
    },
    {
      "type": "Feature",
      "properties": {
        "LocationId": 249,
        "Name": "A1 - Coimbra/Mealhada II",
        "ServiceType": 5
      },
      "geometry": {
        "coordinates": [
          -8.492748,
          40.325873
        ],
        "type": "Point"
      },
      "id": "20023"
    },
    {
      "type": "Feature",
      "properties": {
        "LocationId": 251,
        "Name": "A1 - Mealhada/Aveiro I",
        "ServiceType": 5
      },
      "geometry": {
        "coordinates": [
          -8.490807,
          40.399541
        ],
        "type": "Point"
      },
      "id": "20026"
    },
    {
      "type": "Feature",
      "properties": {
        "LocationId": 252,
        "Name": "A3 - A3 9+200C CV252",
        "ServiceType": 5
      },
      "geometry": {
        "coordinates": [
          -8.567613,
          41.248891
        ],
        "type": "Point"
      },
      "id": "20028"
    },
    {
      "type": "Feature",
      "properties": {
        "LocationId": 262,
        "Name": "A1 - Mealhada/Aveiro III",
        "ServiceType": 5
      },
      "geometry": {
        "coordinates": [
          -8.561412,
          40.56272
        ],
        "type": "Point"
      },
      "id": "20038"
    },
    {
      "type": "Feature",
      "properties": {
        "LocationId": 265,
        "Name": "A1 - Carvalhos I",
        "ServiceType": 5
      },
      "geometry": {
        "coordinates": [
          -8.57995,
          41.074907
        ],
        "type": "Point"
      },
      "id": "20043"
    },
    {
      "type": "Feature",
      "properties": {
        "LocationId": 266,
        "Name": "A1 - Carvalhos II",
        "ServiceType": 5
      },
      "geometry": {
        "coordinates": [
          -8.581374,
          41.079134
        ],
        "type": "Point"
      },
      "id": "20045"
    },
    {
      "type": "Feature",
      "properties": {
        "LocationId": 285,
        "Name": "A10 - Arruda dos Vinhos",
        "ServiceType": 5
      },
      "geometry": {
        "coordinates": [
          -9.062982,
          38.964913
        ],
        "type": "Point"
      },
      "id": "20064"
    },
    {
      "type": "Feature",
      "properties": {
        "LocationId": 286,
        "Name": "A1 - Nó do Cartaxo",
        "ServiceType": 5
      },
      "geometry": {
        "coordinates": [
          -8.789034,
          39.204981
        ],
        "type": "Point"
      },
      "id": "20067"
    },
    {
      "type": "Feature",
      "properties": {
        "LocationId": 301,
        "Name": "A3 - Braga Oeste/Anais",
        "ServiceType": 5
      },
      "geometry": {
        "coordinates": [
          -8.550387,
          41.575693
        ],
        "type": "Point"
      },
      "id": "20083"
    },
    {
      "type": "Feature",
      "properties": {
        "LocationId": 305,
        "Name": "A2 - Almada I",
        "ServiceType": 5
      },
      "geometry": {
        "coordinates": [
          -9.169735,
          38.655945
        ],
        "type": "Point"
      },
      "id": "20087"
    },
    {
      "type": "Feature",
      "properties": {
        "LocationId": 306,
        "Name": "A2 - Almada II",
        "ServiceType": 5
      },
      "geometry": {
        "coordinates": [
          -9.168505,
          38.650621
        ],
        "type": "Point"
      },
      "id": "20089"
    },
    {
      "type": "Feature",
      "properties": {
        "LocationId": 307,
        "Name": "A2 - Almada III",
        "ServiceType": 5
      },
      "geometry": {
        "coordinates": [
          -9.166802,
          38.647269
        ],
        "type": "Point"
      },
      "id": "20091"
    },
    {
      "type": "Feature",
      "properties": {
        "LocationId": 308,
        "Name": "A2 - Almada/Fogueteiro I",
        "ServiceType": 5
      },
      "geometry": {
        "coordinates": [
          -9.151872,
          38.636111
        ],
        "type": "Point"
      },
      "id": "20093"
    },
    {
      "type": "Feature",
      "properties": {
        "LocationId": 309,
        "Name": "A2 - Almada/Fogueteiro II",
        "ServiceType": 5
      },
      "geometry": {
        "coordinates": [
          -9.145006,
          38.631324
        ],
        "type": "Point"
      },
      "id": "20096"
    },
    {
      "type": "Feature",
      "properties": {
        "LocationId": 310,
        "Name": "A2 - Almada/Fogueteiro III",
        "ServiceType": 5
      },
      "geometry": {
        "coordinates": [
          -9.135567,
          38.62474
        ],
        "type": "Point"
      },
      "id": "20098"
    },
    {
      "type": "Feature",
      "properties": {
        "LocationId": 311,
        "Name": "A2 - Almada/Fogueteiro IV",
        "ServiceType": 5
      },
      "geometry": {
        "coordinates": [
          -9.126987,
          38.618754
        ],
        "type": "Point"
      },
      "id": "20099"
    },
    {
      "type": "Feature",
      "properties": {
        "LocationId": 312,
        "Name": "A2 - Fogueteiro",
        "ServiceType": 5
      },
      "geometry": {
        "coordinates": [
          -9.117484,
          38.613802
        ],
        "type": "Point"
      },
      "id": "20101"
    },
    {
      "type": "Feature",
      "properties": {
        "LocationId": 313,
        "Name": "A2 - Fogueteiro I",
        "ServiceType": 5
      },
      "geometry": {
        "coordinates": [
          -9.108296,
          38.610093
        ],
        "type": "Point"
      },
      "id": "20103"
    },
    {
      "type": "Feature",
      "properties": {
        "LocationId": 314,
        "Name": "A2 - Coina",
        "ServiceType": 5
      },
      "geometry": {
        "coordinates": [
          -9.006448,
          38.579697
        ],
        "type": "Point"
      },
      "id": "20105"
    },
    {
      "type": "Feature",
      "properties": {
        "LocationId": 315,
        "Name": "A2 - Coina/Palmela I",
        "ServiceType": 5
      },
      "geometry": {
        "coordinates": [
          -8.991543,
          38.579303
        ],
        "type": "Point"
      },
      "id": "20107"
    },
    {
      "type": "Feature",
      "properties": {
        "LocationId": 316,
        "Name": "A2 - Coina/Palmela II",
        "ServiceType": 5
      },
      "geometry": {
        "coordinates": [
          -8.966751,
          38.582881
        ],
        "type": "Point"
      },
      "id": "20109"
    },
    {
      "type": "Feature",
      "properties": {
        "LocationId": 317,
        "Name": "A2 - Coina/Palmela IV",
        "ServiceType": 5
      },
      "geometry": {
        "coordinates": [
          -8.908542,
          38.585049
        ],
        "type": "Point"
      },
      "id": "20110"
    },
    {
      "type": "Feature",
      "properties": {
        "LocationId": 318,
        "Name": "A2 - Palmela/ A12",
        "ServiceType": 5
      },
      "geometry": {
        "coordinates": [
          -8.870396,
          38.58113
        ],
        "type": "Point"
      },
      "id": "20112"
    },
    {
      "type": "Feature",
      "properties": {
        "LocationId": 319,
        "Name": "A2 - Nó A2/A12 II",
        "ServiceType": 5
      },
      "geometry": {
        "coordinates": [
          -8.851466,
          38.583989
        ],
        "type": "Point"
      },
      "id": "20114"
    },
    {
      "type": "Feature",
      "properties": {
        "LocationId": 320,
        "Name": "A2 - A2/A12 - Marateca",
        "ServiceType": 5
      },
      "geometry": {
        "coordinates": [
          -8.834805,
          38.587236
        ],
        "type": "Point"
      },
      "id": "20116"
    },
    {
      "type": "Feature",
      "properties": {
        "LocationId": 321,
        "Name": "A2 - Marateca",
        "ServiceType": 5
      },
      "geometry": {
        "coordinates": [
          -8.734184,
          38.601388
        ],
        "type": "Point"
      },
      "id": "20118"
    },
    {
      "type": "Feature",
      "properties": {
        "LocationId": 322,
        "Name": "A2 - Marateca II",
        "ServiceType": 5
      },
      "geometry": {
        "coordinates": [
          -8.673036,
          38.601325
        ],
        "type": "Point"
      },
      "id": "20120"
    },
    {
      "type": "Feature",
      "properties": {
        "LocationId": 326,
        "Name": "A1 - Cartaxo/Santarém",
        "ServiceType": 5
      },
      "geometry": {
        "coordinates": [
          -8.7339,
          39.259553
        ],
        "type": "Point"
      },
      "id": "20126"
    },
    {
      "type": "Feature",
      "properties": {
        "LocationId": 338,
        "Name": "A1 - Sto Ovídio",
        "ServiceType": 5
      },
      "geometry": {
        "coordinates": [
          -8.604152,
          41.106603
        ],
        "type": "Point"
      },
      "id": "20136"
    },
    {
      "type": "Feature",
      "properties": {
        "LocationId": 340,
        "Name": "A5 - Alcabideche",
        "ServiceType": 5
      },
      "geometry": {
        "coordinates": [
          -9.416809,
          38.726076
        ],
        "type": "Point"
      },
      "id": "20139"
    },
    {
      "type": "Feature",
      "properties": {
        "LocationId": 341,
        "Name": "A5 - Cascais",
        "ServiceType": 5
      },
      "geometry": {
        "coordinates": [
          -9.436858,
          38.722912
        ],
        "type": "Point"
      },
      "id": "20141"
    },
    {
      "type": "Feature",
      "properties": {
        "LocationId": 342,
        "Name": "A5 - Carcavelos/Estoril",
        "ServiceType": 5
      },
      "geometry": {
        "coordinates": [
          -9.383111,
          38.71762
        ],
        "type": "Point"
      },
      "id": "20143"
    },
    {
      "type": "Feature",
      "properties": {
        "LocationId": 345,
        "Name": "A13 - Salvaterra de Magos",
        "ServiceType": 5
      },
      "geometry": {
        "coordinates": [
          -8.708793,
          39.002175
        ],
        "type": "Point"
      },
      "id": "20147"
    },
    {
      "type": "Feature",
      "properties": {
        "LocationId": 350,
        "Name": "A1 - Leiria/Fátima",
        "ServiceType": 5
      },
      "geometry": {
        "coordinates": [
          -8.736247,
          39.790814
        ],
        "type": "Point"
      },
      "id": "20153"
    },
    {
      "type": "Feature",
      "properties": {
        "LocationId": 356,
        "Name": "A5 - Carcavelos/Estoril",
        "ServiceType": 5
      },
      "geometry": {
        "coordinates": [
          -9.364659,
          38.718611
        ],
        "type": "Point"
      },
      "id": "20158"
    },
    {
      "type": "Feature",
      "properties": {
        "LocationId": 356,
        "Name": "A1",
        "ServiceType": 6
      },
      "geometry": {
        "coordinates": [
          -9.109196,
          38.798938
        ],
        "type": "Point"
      },
      "id": "20159"
    },
    {
      "type": "Feature",
      "properties": {
        "LocationId": 357,
        "Name": "A1",
        "ServiceType": 6
      },
      "geometry": {
        "coordinates": [
          -9.101301,
          38.815772
        ],
        "type": "Point"
      },
      "id": "20160"
    },
    {
      "type": "Feature",
      "properties": {
        "LocationId": 358,
        "Name": "A5 - Estoril/Alcabideche",
        "ServiceType": 5
      },
      "geometry": {
        "coordinates": [
          -9.406912,
          38.726985
        ],
        "type": "Point"
      },
      "id": "20161"
    },
    {
      "type": "Feature",
      "properties": {
        "LocationId": 358,
        "Name": "A1",
        "ServiceType": 6
      },
      "geometry": {
        "coordinates": [
          -8.926293,
          39.113136
        ],
        "type": "Point"
      },
      "id": "20162"
    },
    {
      "type": "Feature",
      "properties": {
        "LocationId": 359,
        "Name": "A1",
        "ServiceType": 6
      },
      "geometry": {
        "coordinates": [
          -8.48709,
          40.195795
        ],
        "type": "Point"
      },
      "id": "20163"
    },
    {
      "type": "Feature",
      "properties": {
        "LocationId": 360,
        "Name": "A13 - Marateca",
        "ServiceType": 5
      },
      "geometry": {
        "coordinates": [
          -8.649344,
          38.611322
        ],
        "type": "Point"
      },
      "id": "20164"
    },
    {
      "type": "Feature",
      "properties": {
        "LocationId": 360,
        "Name": "A2",
        "ServiceType": 6
      },
      "geometry": {
        "coordinates": [
          -9.163851,
          38.6445
        ],
        "type": "Point"
      },
      "id": "20165"
    },
    {
      "type": "Feature",
      "properties": {
        "LocationId": 361,
        "Name": "A2",
        "ServiceType": 6
      },
      "geometry": {
        "coordinates": [
          -9.118612,
          38.614055
        ],
        "type": "Point"
      },
      "id": "20166"
    },
    {
      "type": "Feature",
      "properties": {
        "LocationId": 362,
        "Name": "A3",
        "ServiceType": 6
      },
      "geometry": {
        "coordinates": [
          -8.593897,
          41.185009
        ],
        "type": "Point"
      },
      "id": "20167"
    },
    {
      "type": "Feature",
      "properties": {
        "LocationId": 363,
        "Name": "A3",
        "ServiceType": 6
      },
      "geometry": {
        "coordinates": [
          -8.589937,
          41.195635
        ],
        "type": "Point"
      },
      "id": "20168"
    },
    {
      "type": "Feature",
      "properties": {
        "LocationId": 363,
        "Name": "A4 - Ermesinde II",
        "ServiceType": 5
      },
      "geometry": {
        "coordinates": [
          -8.567028,
          41.200438
        ],
        "type": "Point"
      },
      "id": "20169"
    },
    {
      "type": "Feature",
      "properties": {
        "LocationId": 364,
        "Name": "A4",
        "ServiceType": 6
      },
      "geometry": {
        "coordinates": [
          -8.506575,
          41.197155
        ],
        "type": "Point"
      },
      "id": "20170"
    },
    {
      "type": "Feature",
      "properties": {
        "LocationId": 365,
        "Name": "A5",
        "ServiceType": 6
      },
      "geometry": {
        "coordinates": [
          -9.189678,
          38.725475
        ],
        "type": "Point"
      },
      "id": "20171"
    },
    {
      "type": "Feature",
      "properties": {
        "LocationId": 366,
        "Name": "A5",
        "ServiceType": 6
      },
      "geometry": {
        "coordinates": [
          -9.231188,
          38.716567
        ],
        "type": "Point"
      },
      "id": "20172"
    },
    {
      "type": "Feature",
      "properties": {
        "LocationId": 367,
        "Name": "A5",
        "ServiceType": 6
      },
      "geometry": {
        "coordinates": [
          -9.250689,
          38.718362
        ],
        "type": "Point"
      },
      "id": "20173"
    },
    {
      "type": "Feature",
      "properties": {
        "LocationId": 368,
        "Name": "A5",
        "ServiceType": 6
      },
      "geometry": {
        "coordinates": [
          -9.258165,
          38.713464
        ],
        "type": "Point"
      },
      "id": "20174"
    },
    {
      "type": "Feature",
      "properties": {
        "LocationId": 369,
        "Name": "IC20",
        "ServiceType": 6
      },
      "geometry": {
        "coordinates": [
          -9.2287,
          38.649
        ],
        "type": "Point"
      },
      "id": "20175"
    },
    {
      "type": "Feature",
      "properties": {
        "LocationId": 370,
        "Name": "IC20",
        "ServiceType": 6
      },
      "geometry": {
        "coordinates": [
          -9.1841,
          38.6625
        ],
        "type": "Point"
      },
      "id": "20176"
    },
    {
      "type": "Feature",
      "properties": {
        "LocationId": 385,
        "Name": "A13 - Almeirim",
        "ServiceType": 5
      },
      "geometry": {
        "coordinates": [
          -8.626778,
          39.169705
        ],
        "type": "Point"
      },
      "id": "20179"
    },
    {
      "type": "Feature",
      "properties": {
        "LocationId": 424,
        "Name": "A4 - Ermesinde IV",
        "ServiceType": 5
      },
      "geometry": {
        "coordinates": [
          -8.548375,
          41.201248
        ],
        "type": "Point"
      },
      "id": "20180"
    },
    {
      "type": "Feature",
      "properties": {
        "LocationId": 429,
        "Name": "A4 - Túnel A4",
        "ServiceType": 5
      },
      "geometry": {
        "coordinates": [
          -8.582995,
          41.199033
        ],
        "type": "Point"
      },
      "id": "20181"
    },
    {
      "type": "Feature",
      "properties": {
        "LocationId": 433,
        "Name": "A14 - Figueira da Foz",
        "ServiceType": 5
      },
      "geometry": {
        "coordinates": [
          -8.82151,
          40.149777
        ],
        "type": "Point"
      },
      "id": "20182"
    },
    {
      "type": "Feature",
      "properties": {
        "LocationId": 434,
        "Name": "A14 - Vila Verde",
        "ServiceType": 5
      },
      "geometry": {
        "coordinates": [
          -8.787026,
          40.153914
        ],
        "type": "Point"
      },
      "id": "20183"
    },
    {
      "type": "Feature",
      "properties": {
        "LocationId": 435,
        "Name": "A14 - Santa Eulália",
        "ServiceType": 5
      },
      "geometry": {
        "coordinates": [
          -8.705391,
          40.179542
        ],
        "type": "Point"
      },
      "id": "20184"
    },
    {
      "type": "Feature",
      "properties": {
        "LocationId": 437,
        "Name": "A14 - Montemor-o-Velho",
        "ServiceType": 5
      },
      "geometry": {
        "coordinates": [
          -8.674412,
          40.21116
        ],
        "type": "Point"
      },
      "id": "20185"
    },
    {
      "type": "Feature",
      "properties": {
        "LocationId": 438,
        "Name": "A14 - Ançã",
        "ServiceType": 5
      },
      "geometry": {
        "coordinates": [
          -8.517974,
          40.285243
        ],
        "type": "Point"
      },
      "id": "20186"
    },
    {
      "type": "Feature",
      "properties": {
        "LocationId": 439,
        "Name": "A14 - Ançã-Montemor",
        "ServiceType": 5
      },
      "geometry": {
        "coordinates": [
          -8.62023,
          40.265752
        ],
        "type": "Point"
      },
      "id": "20187"
    },
    {
      "type": "Feature",
      "properties": {
        "LocationId": 444,
        "Name": "A3 - Circunvalação",
        "ServiceType": 5
      },
      "geometry": {
        "coordinates": [
          -8.594958,
          41.187679
        ],
        "type": "Point"
      },
      "id": "20188"
    },
    {
      "type": "Feature",
      "properties": {
        "LocationId": 445,
        "Name": "A4 - Ermesinde I",
        "ServiceType": 5
      },
      "geometry": {
        "coordinates": [
          -8.571173,
          41.198673
        ],
        "type": "Point"
      },
      "id": "20189"
    },
    {
      "type": "Feature",
      "properties": {
        "LocationId": 467,
        "Name": "A13 - Benavente",
        "ServiceType": 5
      },
      "geometry": {
        "coordinates": [
          -8.775836,
          38.909168
        ],
        "type": "Point"
      },
      "id": "20190"
    },
    {
      "type": "Feature",
      "properties": {
        "LocationId": 469,
        "Name": "A17 - Louriçal",
        "ServiceType": 5
      },
      "geometry": {
        "coordinates": [
          -8.798156,
          39.99633
        ],
        "type": "Point"
      },
      "id": "20191"
    },
    {
      "type": "Feature",
      "properties": {
        "LocationId": 481,
        "Name": "A10 - Ponte da Lezíria V",
        "ServiceType": 5
      },
      "geometry": {
        "coordinates": [
          -8.920682,
          39.008699
        ],
        "type": "Point"
      },
      "id": "20192"
    },
    {
      "type": "Feature",
      "properties": {
        "LocationId": 482,
        "Name": "A10 - Ponte da Lezíria VII",
        "ServiceType": 5
      },
      "geometry": {
        "coordinates": [
          -8.920563,
          39.008904
        ],
        "type": "Point"
      },
      "id": "20193"
    },
    {
      "type": "Feature",
      "properties": {
        "LocationId": 487,
        "Name": "A10 - Ponte da Lezíria VIII",
        "ServiceType": 5
      },
      "geometry": {
        "coordinates": [
          -8.89455,
          38.990474
        ],
        "type": "Point"
      },
      "id": "20194"
    },
    {
      "type": "Feature",
      "properties": {
        "LocationId": 495,
        "Name": "A10 - Ponte da Lezíria XII",
        "ServiceType": 5
      },
      "geometry": {
        "coordinates": [
          -8.861489,
          38.966926
        ],
        "type": "Point"
      },
      "id": "20195"
    },
    {
      "type": "Feature",
      "properties": {
        "LocationId": 502,
        "Name": "A17 - Guia",
        "ServiceType": 5
      },
      "geometry": {
        "coordinates": [
          -8.773688,
          39.955392
        ],
        "type": "Point"
      },
      "id": "20196"
    },
    {
      "type": "Feature",
      "properties": {
        "LocationId": 503,
        "Name": "A17 - Monte Redondo",
        "ServiceType": 5
      },
      "geometry": {
        "coordinates": [
          -8.803196,
          39.905259
        ],
        "type": "Point"
      },
      "id": "20197"
    },
    {
      "type": "Feature",
      "properties": {
        "LocationId": 504,
        "Name": "A17 - Monte Real",
        "ServiceType": 5
      },
      "geometry": {
        "coordinates": [
          -8.824527,
          39.860784
        ],
        "type": "Point"
      },
      "id": "20198"
    },
    {
      "type": "Feature",
      "properties": {
        "LocationId": 505,
        "Name": "A17 - Leiria Norte",
        "ServiceType": 5
      },
      "geometry": {
        "coordinates": [
          -8.836411,
          39.821768
        ],
        "type": "Point"
      },
      "id": "20199"
    },
    {
      "type": "Feature",
      "properties": {
        "LocationId": 506,
        "Name": "A17 - Marinha Grande",
        "ServiceType": 5
      },
      "geometry": {
        "coordinates": [
          -8.878382,
          39.749016
        ],
        "type": "Point"
      },
      "id": "20200"
    },
    {
      "type": "Feature",
      "properties": {
        "LocationId": 532,
        "Name": "A2 - Fogueteiro/Coina",
        "ServiceType": 5
      },
      "geometry": {
        "coordinates": [
          -9.05949,
          38.588566
        ],
        "type": "Point"
      },
      "id": "20201"
    },
    {
      "type": "Feature",
      "properties": {
        "LocationId": 541,
        "Name": "A17 - Marinha Ondas I",
        "ServiceType": 5
      },
      "geometry": {
        "coordinates": [
          -8.807449,
          40.050861
        ],
        "type": "Point"
      },
      "id": "20202"
    },
    {
      "type": "Feature",
      "properties": {
        "LocationId": 542,
        "Name": "A17 - Marinha Ondas II",
        "ServiceType": 5
      },
      "geometry": {
        "coordinates": [
          -8.743507,
          40.10992
        ],
        "type": "Point"
      },
      "id": "20203"
    },
    {
      "type": "Feature",
      "properties": {
        "LocationId": 544,
        "Name": "A17 - Figueira da Foz",
        "ServiceType": 5
      },
      "geometry": {
        "coordinates": [
          -8.790596,
          40.171294
        ],
        "type": "Point"
      },
      "id": "20204"
    },
    {
      "type": "Feature",
      "properties": {
        "LocationId": 545,
        "Name": "A17 - Quiaios",
        "ServiceType": 5
      },
      "geometry": {
        "coordinates": [
          -8.78956,
          40.229068
        ],
        "type": "Point"
      },
      "id": "20205"
    },
    {
      "type": "Feature",
      "properties": {
        "LocationId": 546,
        "Name": "A17 - Tocha",
        "ServiceType": 5
      },
      "geometry": {
        "coordinates": [
          -8.71926,
          40.337676
        ],
        "type": "Point"
      },
      "id": "20206"
    },
    {
      "type": "Feature",
      "properties": {
        "LocationId": 547,
        "Name": "A17 - Mira",
        "ServiceType": 5
      },
      "geometry": {
        "coordinates": [
          -8.709143,
          40.417885
        ],
        "type": "Point"
      },
      "id": "20207"
    },
    {
      "type": "Feature",
      "properties": {
        "LocationId": 557,
        "Name": "IC20 - IC20/A33",
        "ServiceType": 5
      },
      "geometry": {
        "coordinates": [
          -9.210903,
          38.654121
        ],
        "type": "Point"
      },
      "id": "20208"
    },
    {
      "type": "Feature",
      "properties": {
        "LocationId": 687,
        "Name": "IC20 - Cova da Piedade",
        "ServiceType": 5
      },
      "geometry": {
        "coordinates": [
          -9.178967,
          38.664096
        ],
        "type": "Point"
      },
      "id": "20209"
    },
    {
      "type": "Feature",
      "properties": {
        "LocationId": 688,
        "Name": "IC20 - A2/IC20",
        "ServiceType": 5
      },
      "geometry": {
        "coordinates": [
          -9.189571,
          38.660522
        ],
        "type": "Point"
      },
      "id": "20210"
    },
    {
      "type": "Feature",
      "properties": {
        "LocationId": 689,
        "Name": "IC20 - Nó do Hospital",
        "ServiceType": 5
      },
      "geometry": {
        "coordinates": [
          -9.200118,
          38.657221
        ],
        "type": "Point"
      },
      "id": "20211"
    },
    {
      "type": "Feature",
      "properties": {
        "LocationId": 690,
        "Name": "IC20 - Nó Funchalinho",
        "ServiceType": 5
      },
      "geometry": {
        "coordinates": [
          -9.222264,
          38.653487
        ],
        "type": "Point"
      },
      "id": "20212"
    },
    {
      "type": "Feature",
      "properties": {
        "LocationId": 691,
        "Name": "IC20 - Ligação Trafaria",
        "ServiceType": 5
      },
      "geometry": {
        "coordinates": [
          -9.228672,
          38.650007
        ],
        "type": "Point"
      },
      "id": "20213"
    },
    {
      "type": "Feature",
      "properties": {
        "LocationId": 885,
        "Name": "A2 - Coina/Palmela III",
        "ServiceType": 5
      },
      "geometry": {
        "coordinates": [
          -8.947377,
          38.584275
        ],
        "type": "Point"
      },
      "id": "20214"
    },
    {
      "type": "Feature",
      "properties": {
        "LocationId": 1,
        "Name": "AVT-90001",
        "ServiceType": 26,
        "Standard": [
          "IEC_62196_T2"
        ],
        "Offers": [
          "63c0d239adbe1d00010381c3"
        ],
        "OffersV2": [
          {
            "PublisherId": "MobiE",
            "LinkLocationId": "PT+EDP+AVT-90001",
            "OfferId": "63c0d239adbe1d00010381c3"
          }
        ],
        "ParkingType": [
          "ON_STREET"
        ],
        "MaxElectricPower": 22000
      },
      "geometry": {
        "coordinates": [
          -7.99203,
          38.25717
        ],
        "type": "Point"
      },
      "id": "20215"
    },
    {
      "type": "Feature",
      "properties": {
        "LocationId": 2,
        "Name": "CBA-90001",
        "ServiceType": 26,
        "Standard": [
          "IEC_62196_T2"
        ],
        "Offers": [
          "63c0d23cadbe1d00010382e5"
        ],
        "OffersV2": [
          {
            "PublisherId": "MobiE",
            "LinkLocationId": "PT+HRZ+CBA-90001",
            "OfferId": "63c0d23cadbe1d00010382e5"
          }
        ],
        "ParkingType": [
          "ON_STREET"
        ],
        "MaxElectricPower": 22000
      },
      "geometry": {
        "coordinates": [
          -7.89479,
          38.16796
        ],
        "type": "Point"
      },
      "id": "20216"
    },
    {
      "type": "Feature",
      "properties": {
        "LocationId": 3,
        "Name": "VNT-90001",
        "ServiceType": 26,
        "Standard": [
          "IEC_62196_T2"
        ],
        "Offers": [
          "63c0d260adbe1d0001038fe7"
        ],
        "OffersV2": [
          {
            "PublisherId": "MobiE",
            "LinkLocationId": "PT+GLP+VNT-90001",
            "OfferId": "63c0d260adbe1d0001038fe7"
          }
        ],
        "ParkingType": [
          "ON_STREET"
        ],
        "MaxElectricPower": 22000
      },
      "geometry": {
        "coordinates": [
          -7.99583,
          38.3305
        ],
        "type": "Point"
      },
      "id": "20217"
    },
    {
      "type": "Feature",
      "properties": {
        "LocationId": 4,
        "Name": "FAL-90001",
        "ServiceType": 26,
        "Standard": [
          "IEC_62196_T2"
        ],
        "Offers": [
          "63c0d242adbe1d0001038549"
        ],
        "OffersV2": [
          {
            "PublisherId": "MobiE",
            "LinkLocationId": "PT+EDP+FAL-90001",
            "OfferId": "63c0d242adbe1d0001038549"
          }
        ],
        "ParkingType": [
          "ON_STREET"
        ],
        "MaxElectricPower": 22000
      },
      "geometry": {
        "coordinates": [
          -8.11279,
          38.05878
        ],
        "type": "Point"
      },
      "id": "20218"
    },
    {
      "type": "Feature",
      "properties": {
        "LocationId": 5,
        "Name": "VDG-90001",
        "ServiceType": 26,
        "Standard": [
          "IEC_62196_T2"
        ],
        "Offers": [
          "63c0d25badbe1d0001038e2f"
        ],
        "OffersV2": [
          {
            "PublisherId": "MobiE",
            "LinkLocationId": "PT+HRZ+VDG-90001",
            "OfferId": "63c0d25badbe1d0001038e2f"
          }
        ],
        "ParkingType": [
          "ON_STREET"
        ],
        "MaxElectricPower": 22000
      },
      "geometry": {
        "coordinates": [
          -7.80209,
          38.21175
        ],
        "type": "Point"
      },
      "id": "20219"
    },
    {
      "type": "Feature",
      "properties": {
        "LocationId": 6,
        "Name": "BJA-90005",
        "ServiceType": 26,
        "Standard": [
          "IEC_62196_T2"
        ],
        "Offers": [
          "63c0d23aadbe1d000103822b"
        ],
        "OffersV2": [
          {
            "PublisherId": "MobiE",
            "LinkLocationId": "PT+GLP+BJA-90005",
            "OfferId": "63c0d23aadbe1d000103822b"
          }
        ],
        "ParkingType": [
          "ON_STREET"
        ],
        "MaxElectricPower": 3700
      },
      "geometry": {
        "coordinates": [
          -7.86744,
          38.02656
        ],
        "type": "Point"
      },
      "id": "20220"
    },
    {
      "type": "Feature",
      "properties": {
        "LocationId": 7,
        "Name": "BJA-90003",
        "ServiceType": 26,
        "Standard": [
          "IEC_62196_T2"
        ],
        "Offers": [
          "63c0d23aadbe1d0001038227"
        ],
        "OffersV2": [
          {
            "PublisherId": "MobiE",
            "LinkLocationId": "PT+EDP+BJA-90003",
            "OfferId": "63c0d23aadbe1d0001038227"
          }
        ],
        "ParkingType": [
          "ON_STREET"
        ],
        "MaxElectricPower": 3700
      },
      "geometry": {
        "coordinates": [
          -7.87256,
          38.01329
        ],
        "type": "Point"
      },
      "id": "20221"
    },
    {
      "type": "Feature",
      "properties": {
        "LocationId": 8,
        "Name": "BJA-90002",
        "ServiceType": 26,
        "Standard": [
          "IEC_62196_T2"
        ],
        "Offers": [
          "63c0d23aadbe1d0001038225"
        ],
        "OffersV2": [
          {
            "PublisherId": "MobiE",
            "LinkLocationId": "PT+GLP+BJA-90002",
            "OfferId": "63c0d23aadbe1d0001038225"
          }
        ],
        "ParkingType": [
          "ON_STREET"
        ],
        "MaxElectricPower": 3700
      },
      "geometry": {
        "coordinates": [
          -7.86685,
          38.01501
        ],
        "type": "Point"
      },
      "id": "20222"
    },
    {
      "type": "Feature",
      "properties": {
        "LocationId": 9,
        "Name": "BJA-90001",
        "ServiceType": 26,
        "Standard": [
          "IEC_62196_T2"
        ],
        "Offers": [
          "63c0d23aadbe1d0001038223"
        ],
        "OffersV2": [
          {
            "PublisherId": "MobiE",
            "LinkLocationId": "PT+GLP+BJA-90001",
            "OfferId": "63c0d23aadbe1d0001038223"
          }
        ],
        "ParkingType": [
          "ON_STREET"
        ],
        "MaxElectricPower": 3700
      },
      "geometry": {
        "coordinates": [
          -7.86523,
          38.01565
        ],
        "type": "Point"
      },
      "id": "20223"
    },
    {
      "type": "Feature",
      "properties": {
        "LocationId": 10,
        "Name": "BJA-90004",
        "ServiceType": 26,
        "Standard": [
          "IEC_62196_T2"
        ],
        "Offers": [
          "63c0d23aadbe1d0001038229"
        ],
        "OffersV2": [
          {
            "PublisherId": "MobiE",
            "LinkLocationId": "PT+HRZ+BJA-90004",
            "OfferId": "63c0d23aadbe1d0001038229"
          }
        ],
        "ParkingType": [
          "ON_STREET"
        ],
        "MaxElectricPower": 22000
      },
      "geometry": {
        "coordinates": [
          -7.87453,
          38.01086
        ],
        "type": "Point"
      },
      "id": "20224"
    },
    {
      "type": "Feature",
      "properties": {
        "LocationId": 11,
        "Name": "BJA-00009",
        "ServiceType": 26,
        "Standard": [
          "IEC_62196_T2"
        ],
        "Offers": [
          "63c0d23aadbe1d0001038219"
        ],
        "OffersV2": [
          {
            "PublisherId": "MobiE",
            "LinkLocationId": "PT+HRZ+BJA-00009",
            "OfferId": "63c0d23aadbe1d0001038219"
          }
        ],
        "ParkingType": [
          "PARKING_LOT"
        ],
        "MaxElectricPower": 22000
      },
      "geometry": {
        "coordinates": [
          -7.84887,
          38.02169
        ],
        "type": "Point"
      },
      "id": "20225"
    },
    {
      "type": "Feature",
      "properties": {
        "LocationId": 12,
        "Name": "BJA-00010",
        "ServiceType": 26,
        "Standard": [
          "IEC_62196_T2"
        ],
        "Offers": [
          "63c0d23aadbe1d000103821b"
        ],
        "OffersV2": [
          {
            "PublisherId": "MobiE",
            "LinkLocationId": "PT+EDP+BJA-00010",
            "OfferId": "63c0d23aadbe1d000103821b"
          }
        ],
        "ParkingType": [
          "PARKING_GARAGE"
        ],
        "MaxElectricPower": 7400
      },
      "geometry": {
        "coordinates": [
          -7.86073,
          38.0129
        ],
        "type": "Point"
      },
      "id": "20226"
    },
    {
      "type": "Feature",
      "properties": {
        "LocationId": 13,
        "Name": "BJA-00011",
        "ServiceType": 26,
        "Standard": [
          "IEC_62196_T2"
        ],
        "Offers": [
          "63c0d23aadbe1d000103821d"
        ],
        "OffersV2": [
          {
            "PublisherId": "MobiE",
            "LinkLocationId": "PT+EDP+BJA-00011",
            "OfferId": "63c0d23aadbe1d000103821d"
          }
        ],
        "ParkingType": [
          "PARKING_GARAGE"
        ],
        "MaxElectricPower": 7400
      },
      "geometry": {
        "coordinates": [
          -7.86073,
          38.01275
        ],
        "type": "Point"
      },
      "id": "20227"
    },
    {
      "type": "Feature",
      "properties": {
        "LocationId": 15,
        "Name": "PRL-90001",
        "ServiceType": 26,
        "Standard": [
          "IEC_62196_T2"
        ],
        "Offers": [
          "63c0d24eadbe1d000103899d"
        ],
        "OffersV2": [
          {
            "PublisherId": "MobiE",
            "LinkLocationId": "PT+GLP+PRL-90001",
            "OfferId": "63c0d24eadbe1d000103899d"
          }
        ],
        "ParkingType": [
          "ON_STREET"
        ],
        "MaxElectricPower": 22000
      },
      "geometry": {
        "coordinates": [
          -7.70781,
          38.30683
        ],
        "type": "Point"
      },
      "id": "20229"
    },
    {
      "type": "Feature",
      "properties": {
        "LocationId": 16,
        "Name": "BJA-00008",
        "ServiceType": 26,
        "Standard": [
          "IEC_62196_T2"
        ],
        "Offers": [
          "63c0d23aadbe1d0001038217"
        ],
        "OffersV2": [
          {
            "PublisherId": "MobiE",
            "LinkLocationId": "PT+EDP+BJA-00008",
            "OfferId": "63c0d23aadbe1d0001038217"
          }
        ],
        "ParkingType": [
          "PARKING_GARAGE"
        ],
        "MaxElectricPower": 7400
      },
      "geometry": {
        "coordinates": [
          -8.02108,
          37.8891
        ],
        "type": "Point"
      },
      "id": "20230"
    },
    {
      "type": "Feature",
      "properties": {
        "LocationId": 17,
        "Name": "BJA-00007",
        "ServiceType": 26,
        "Standard": [
          "IEC_62196_T2"
        ],
        "Offers": [
          "63c0d23aadbe1d0001038215"
        ],
        "OffersV2": [
          {
            "PublisherId": "MobiE",
            "LinkLocationId": "PT+EDP+BJA-00007",
            "OfferId": "63c0d23aadbe1d0001038215"
          }
        ],
        "ParkingType": [
          "PARKING_GARAGE"
        ],
        "MaxElectricPower": 7400
      },
      "geometry": {
        "coordinates": [
          -8.02108,
          37.88909
        ],
        "type": "Point"
      },
      "id": "20231"
    },
    {
      "type": "Feature",
      "properties": {
        "LocationId": 18,
        "Name": "AJT-00002",
        "ServiceType": 26,
        "Standard": [
          "IEC_62196_T2",
          "IEC_62196_T2_COMBO",
          "CHADEMO"
        ],
        "Offers": [
          "63c0d235adbe1d0001038071"
        ],
        "OffersV2": [
          {
            "PublisherId": "MobiE",
            "LinkLocationId": "PT+GLG+AJT-00002",
            "OfferId": "63c0d235adbe1d0001038071"
          }
        ],
        "ParkingType": [
          "ALONG_MOTORWAY"
        ],
        "MaxElectricPower": 50000
      },
      "geometry": {
        "coordinates": [
          -8.24385,
          37.92428
        ],
        "type": "Point"
      },
      "id": "20232"
    },
    {
      "type": "Feature",
      "properties": {
        "LocationId": 21,
        "Name": "AJT-90004",
        "ServiceType": 26,
        "Standard": [
          "IEC_62196_T2"
        ],
        "Offers": [
          "63c0d236adbe1d000103807b"
        ],
        "OffersV2": [
          {
            "PublisherId": "MobiE",
            "LinkLocationId": "PT+HRZ+AJT-90004",
            "OfferId": "63c0d236adbe1d000103807b"
          }
        ],
        "ParkingType": [
          "ON_STREET"
        ],
        "MaxElectricPower": 22000
      },
      "geometry": {
        "coordinates": [
          -8.163779,
          37.87815
        ],
        "type": "Point"
      },
      "id": "20235"
    },
    {
      "type": "Feature",
      "properties": {
        "LocationId": 22,
        "Name": "EVR-00019",
        "ServiceType": 26,
        "Standard": [
          "IEC_62196_T2"
        ],
        "Offers": [
          "63c0d242adbe1d0001038521"
        ],
        "OffersV2": [
          {
            "PublisherId": "MobiE",
            "LinkLocationId": "PT+HRZ+EVR-00019",
            "OfferId": "63c0d242adbe1d0001038521"
          }
        ],
        "ParkingType": [
          "PARKING_LOT"
        ],
        "MaxElectricPower": 22000
      },
      "geometry": {
        "coordinates": [
          -7.90901,
          38.5455
        ],
        "type": "Point"
      },
      "id": "20236"
    },
    {
      "type": "Feature",
      "properties": {
        "LocationId": 23,
        "Name": "EVR-90008",
        "ServiceType": 26,
        "Standard": [
          "IEC_62196_T2"
        ],
        "Offers": [
          "63c0d242adbe1d0001038539"
        ],
        "OffersV2": [
          {
            "PublisherId": "MobiE",
            "LinkLocationId": "PT+EDP+EVR-90008",
            "OfferId": "63c0d242adbe1d0001038539"
          }
        ],
        "ParkingType": [
          "ON_STREET"
        ],
        "MaxElectricPower": 3700
      },
      "geometry": {
        "coordinates": [
          -7.91464,
          38.54832
        ],
        "type": "Point"
      },
      "id": "20237"
    },
    {
      "type": "Feature",
      "properties": {
        "LocationId": 24,
        "Name": "GDL-00005",
        "ServiceType": 26,
        "Standard": [
          "IEC_62196_T2"
        ],
        "Offers": [
          "63c0d244adbe1d000103860f"
        ],
        "OffersV2": [
          {
            "PublisherId": "MobiE",
            "LinkLocationId": "PT+PLG+GDL-00005",
            "OfferId": "63c0d244adbe1d000103860f"
          }
        ],
        "ParkingType": [
          "ON_STREET"
        ],
        "MaxElectricPower": 22000
      },
      "geometry": {
        "coordinates": [
          -8.42597,
          38.03585
        ],
        "type": "Point"
      },
      "id": "20238"
    },
    {
      "type": "Feature",
      "properties": {
        "LocationId": 25,
        "Name": "EVR-00017",
        "ServiceType": 26,
        "Standard": [
          "IEC_62196_T2",
          "IEC_62196_T2_COMBO",
          "CHADEMO"
        ],
        "Offers": [
          "63c0d242adbe1d000103851d"
        ],
        "OffersV2": [
          {
            "PublisherId": "MobiE",
            "LinkLocationId": "PT+KLC+EVR-00017",
            "OfferId": "63c0d242adbe1d000103851d"
          }
        ],
        "ParkingType": [
          "PARKING_LOT"
        ],
        "MaxElectricPower": 50000
      },
      "geometry": {
        "coordinates": [
          -7.91402,
          38.55892
        ],
        "type": "Point"
      },
      "id": "20239"
    },
    {
      "type": "Feature",
      "properties": {
        "LocationId": 26,
        "Name": "EVR-00018",
        "ServiceType": 26,
        "Standard": [
          "IEC_62196_T2",
          "IEC_62196_T2_COMBO",
          "CHADEMO"
        ],
        "Offers": [
          "63c0d242adbe1d000103851f"
        ],
        "OffersV2": [
          {
            "PublisherId": "MobiE",
            "LinkLocationId": "PT+HRZ+EVR-00018",
            "OfferId": "63c0d242adbe1d000103851f"
          }
        ],
        "ParkingType": [
          "PARKING_LOT"
        ],
        "MaxElectricPower": 50000
      },
      "geometry": {
        "coordinates": [
          -7.92617,
          38.56234
        ],
        "type": "Point"
      },
      "id": "20240"
    },
    {
      "type": "Feature",
      "properties": {
        "LocationId": 27,
        "Name": "EVR-00015",
        "ServiceType": 26,
        "Standard": [
          "IEC_62196_T2"
        ],
        "Offers": [
          "63c0d242adbe1d0001038517",
          "63c0d242adbe1d0001038519"
        ],
        "OffersV2": [
          {
            "PublisherId": "MobiE",
            "LinkLocationId": "PT+EDP+EVR-00014",
            "OfferId": "63c0d242adbe1d0001038517"
          },
          {
            "PublisherId": "MobiE",
            "LinkLocationId": "PT+EDP+EVR-00015",
            "OfferId": "63c0d242adbe1d0001038519"
          }
        ],
        "ParkingType": [
          "PARKING_GARAGE"
        ],
        "MaxElectricPower": 7400
      },
      "geometry": {
        "coordinates": [
          -7.91559,
          38.56697
        ],
        "type": "Point"
      },
      "id": "20241"
    },
    {
      "type": "Feature",
      "properties": {
        "LocationId": 29,
        "Name": "EVR-90005",
        "ServiceType": 26,
        "Standard": [
          "IEC_62196_T2"
        ],
        "Offers": [
          "63c0d242adbe1d0001038533"
        ],
        "OffersV2": [
          {
            "PublisherId": "MobiE",
            "LinkLocationId": "PT+EDP+EVR-90005",
            "OfferId": "63c0d242adbe1d0001038533"
          }
        ],
        "ParkingType": [
          "ON_STREET"
        ],
        "MaxElectricPower": 3700
      },
      "geometry": {
        "coordinates": [
          -7.91854,
          38.56782
        ],
        "type": "Point"
      },
      "id": "20243"
    },
    {
      "type": "Feature",
      "properties": {
        "LocationId": 30,
        "Name": "EVR-00011",
        "ServiceType": 26,
        "Standard": [
          "IEC_62196_T2",
          "IEC_62196_T2_COMBO",
          "CHADEMO"
        ],
        "Offers": [
          "63c0d242adbe1d0001038511"
        ],
        "OffersV2": [
          {
            "PublisherId": "MobiE",
            "LinkLocationId": "PT+EDP+EVR-00011",
            "OfferId": "63c0d242adbe1d0001038511"
          }
        ],
        "ParkingType": [
          "ON_STREET"
        ],
        "MaxElectricPower": 50000
      },
      "geometry": {
        "coordinates": [
          -7.90241,
          38.56679
        ],
        "type": "Point"
      },
      "id": "20244"
    },
    {
      "type": "Feature",
      "properties": {
        "LocationId": 31,
        "Name": "EVR-90004",
        "ServiceType": 26,
        "Standard": [
          "IEC_62196_T2"
        ],
        "Offers": [
          "63c0d242adbe1d0001038531"
        ],
        "OffersV2": [
          {
            "PublisherId": "MobiE",
            "LinkLocationId": "PT+EDP+EVR-90004",
            "OfferId": "63c0d242adbe1d0001038531"
          }
        ],
        "ParkingType": [
          "ON_STREET"
        ],
        "MaxElectricPower": 22000
      },
      "geometry": {
        "coordinates": [
          -7.90955,
          38.56907
        ],
        "type": "Point"
      },
      "id": "20245"
    },
    {
      "type": "Feature",
      "properties": {
        "LocationId": 32,
        "Name": "EVR-90007",
        "ServiceType": 26,
        "Standard": [
          "IEC_62196_T2"
        ],
        "Offers": [
          "63c0d242adbe1d0001038537"
        ],
        "OffersV2": [
          {
            "PublisherId": "MobiE",
            "LinkLocationId": "PT+HRZ+EVR-90007",
            "OfferId": "63c0d242adbe1d0001038537"
          }
        ],
        "ParkingType": [
          "ON_STREET"
        ],
        "MaxElectricPower": 3700
      },
      "geometry": {
        "coordinates": [
          -7.90081,
          38.56768
        ],
        "type": "Point"
      },
      "id": "20246"
    },
    {
      "type": "Feature",
      "properties": {
        "LocationId": 33,
        "Name": "EVR-90009",
        "ServiceType": 26,
        "Standard": [
          "IEC_62196_T2"
        ],
        "Offers": [
          "63c0d242adbe1d000103853b"
        ],
        "OffersV2": [
          {
            "PublisherId": "MobiE",
            "LinkLocationId": "PT+EDP+EVR-90009",
            "OfferId": "63c0d242adbe1d000103853b"
          }
        ],
        "ParkingType": [
          "ON_STREET"
        ],
        "MaxElectricPower": 3700
      },
      "geometry": {
        "coordinates": [
          -7.90972,
          38.5725
        ],
        "type": "Point"
      },
      "id": "20247"
    },